[
    {
        "id": "1",
        "name": "Raf Sparri",
        "phone": "5129250",
        "openingHours": "0-1",
        "location": 3
    },
    {
        "id": "2",
        "name": "EHF M\u00e1lning",
        "phone": "9991111",
        "openingHours": "8-4",
        "location": 5
    },
    {
        "id": "3",
        "name": "Fix-It Fred's Repair",
        "phone": "5347892",
        "openingHours": "10-6",
        "location": 7
    },
    {
        "id": "4",
        "name": "Handy Joe's Service",
        "phone": "5412323",
        "openingHours": "7-0",
        "location": 2
    },
    {
        "id": "5",
        "name": "Reliable Repairs",
        "phone": "5489102",
        "openingHours": "7-3",
        "location": 8
    },
    {
        "id": "6",
        "name": "not so quick fix solutions",
        "phone": "8483417",
        "openingHours": "9-5",
        "location": 4
    },
    {
        "id": "9",
        "name": "Window cleaners",
        "phone": "7721119",
        "openingHours": "2-9",
        "location": "4"
    }
]